{ "last_updated": 1459708312, "ttl": 60, "data": { "stations": [{ "station_id": "bcycle_pacersbikeshare_2605", "name": "Convention Center - Maryland and Capitol", "lat": 39.76593, "lon": -86.16216, "address": "50 S. Capitol Ave." }, { "station_id": "bcycle_pacersbikeshare_2607", "name": "Victory Field", "lat": 39.76595, "lon": -86.16689, "address": "99 S. West St." }, { "station_id": "bcycle_pacersbikeshare_2608", "name": "White River State Park", "lat": 39.76832, "lon": -86.17027, "address": "650 S. Washington St." }, { "station_id": "bcycle_pacersbikeshare_2609", "name": "North End of Canal", "lat": 39.78179, "lon": -86.1659, "address": "1325 Canal Walk" }, { "station_id": "bcycle_pacersbikeshare_2610", "name": "Michigan and Blackford", "lat": 39.77475, "lon": -86.16984, "address": "525 N. Blackford St." }, { "station_id": "bcycle_pacersbikeshare_2611", "name": "IUPUI Campus Center", "lat": 39.77338, "lon": -86.17543, "address": "401 University Blvd." }, { "station_id": "bcycle_pacersbikeshare_2612", "name": "Michigan and Senate", "lat": 39.77418, "lon": -86.16348, "address": "300 N. Michigan St." }, { "station_id": "bcycle_pacersbikeshare_2613", "name": "City County Building", "lat": 39.76722, "lon": -86.15416, "address": "200 E. Washington St." }, { "station_id": "bcycle_pacersbikeshare_2614", "name": "Fountain Square", "lat": 39.75241, "lon": -86.13995, "address": "1066 Virginia Ave." }, { "station_id": "bcycle_pacersbikeshare_2615", "name": "Fletcher Place - Virginia and Norwood", "lat": 39.7574, "lon": -86.14549, "address": "749 Virginia Ave." }, { "station_id": "bcycle_pacersbikeshare_2616", "name": "Fletcher Place - Virginia and Merrill", "lat": 39.75893, "lon": -86.147, "address": "531 Virginia Ave." }, { "station_id": "bcycle_pacersbikeshare_2618", "name": "Washington and Meridian", "lat": 39.7672, "lon": -86.15832, "address": "2 W. Washington St." }, { "station_id": "bcycle_pacersbikeshare_2619", "name": "City Market", "lat": 39.76866, "lon": -86.15284, "address": "108 N. Alabama St." }, { "station_id": "bcycle_pacersbikeshare_2620", "name": "Mass Ave. and Alabama", "lat": 39.77224, "lon": -86.1526, "address": "372 N. Alabama St." }, { "station_id": "bcycle_pacersbikeshare_2621", "name": "North End of Mass Ave.", "lat": 39.77964, "lon": -86.14212, "address": "949 Massachusetts Ave." }, { "station_id": "bcycle_pacersbikeshare_2622", "name": "Athenaeum", "lat": 39.77383, "lon": -86.15043, "address": "401 E. Michigan St." }, { "station_id": "bcycle_pacersbikeshare_2623", "name": "Convention Center at Georgia Street", "lat": 39.76423, "lon": -86.16161, "address": "151 W. Georgia St." }, { "station_id": "bcycle_pacersbikeshare_2624", "name": "Bankers Life Fieldhouse", "lat": 39.76481, "lon": -86.1565, "address": "169 S. Pennsylvania St." }, { "station_id": "bcycle_pacersbikeshare_2625", "name": "Central Library", "lat": 39.77803, "lon": -86.15631, "address": "40 E. St. Clair St." }, { "station_id": "bcycle_pacersbikeshare_2626", "name": "Mass Ave. and Park", "lat": 39.77643, "lon": -86.14727, "address": "680 Massachusetts Ave." }, { "station_id": "bcycle_pacersbikeshare_2627", "name": "Monument Circle", "lat": 39.76885, "lon": -86.15736, "address": "121 Monument Circle" }, { "station_id": "bcycle_pacersbikeshare_2628", "name": "Indiana Government Center", "lat": 39.76737, "lon": -86.16474, "address": "364 W. Washington St. " }, { "station_id": "bcycle_pacersbikeshare_2629", "name": "North and Alabama", "lat": 39.77564, "lon": -86.15217, "address": "605 N. Alabama St." }, { "station_id": "bcycle_pacersbikeshare_2630", "name": "Glick Peace Walk", "lat": 39.77669, "lon": -86.16119, "address": "625 N. Capitol Ave. " }, { "station_id": "bcycle_pacersbikeshare_2873", "name": "Gibson Building", "lat": 39.77356, "lon": -86.16133, "address": "433 N. Capitol Ave." }, { "station_id": "bcycle_pacersbikeshare_3366", "name": "One America Building", "lat": 39.7704, "lon": -86.15982, "address": "202 N. Illinois St." }] } }